{"Items":[
{"id":1,"userId":1,"name":"올리브영","address":"서울 서대문구 이화여대길 43 ","longitude":126.945996,"latitude":37.557636,"category":"cosm","imagePath":"/usr/mysq/tree.jpg","phone":"02-000-0000","startTime":"10시00분","endTime":"23시00분","holiday":"일요일","explain":"설명이 없습니다","isCoupon":1,"isEvent":0,"isSale":0},
{"id":2,"userId":2,"name":"엔젤리너스","address":"서울 서대문구 이화여대길 48","longitude":126.945871,"latitude":37.559023,"category":"rest","imagePath":"/usr/mysql/every.png","phone":"02-111-1111","startTime":"11시 00분","endTime":"22시 00분","holiday":"없음","explain":"맛있나...?","isCoupon":0,"isEvent":0,"isSale":0},
{"id":3,"userId":2,"name":"수라","address":"서울 서대문구 이화여대길 34","longitude":126.946224,"latitude":37.558246,"category":"cafe","imagePath":"/usr/mysql/nom.png","phone":"010-0100-0100","startTime":"00시 00분","endTime":"24시 00분","holiday":"월요일","explain":"버거킹","isCoupon":0,"isEvent":1,"isSale":1},
{"id":4,"userId":2,"name":"뫄뫄뫄","address":"경기도 성남시 분당구 중앙공원로 53","longitude":127.128375,"latitude":37.383476,"category":"rest","imagePath":"/usr/mysql/nom.png","phone":"010-0100-0100","startTime":"00시 00분","endTime":"24시 00분","holiday":"월요일","explain":"버거킹","isCoupon":1,"isEvent":1,"isSale":1},
{"id":5,"userId":2,"name":"서현초등학교","address":"경기도 성남시 분당구 서현1동 92-1","longitude":127.1309,"latitude":37.38315,"category":"cafe","imagePath":"/usr/mysql/nom.png","phone":"010-0100-0100","startTime":"00시 00분","endTime":"24시 00분","holiday":"월요일","explain":"버거킹","isCoupon":1,"isEvent":1,"isSale":1},
{"id":6,"userId":2,"name":"솨솨솨","address":"경기도 성남시 분당구 서현1동 92-1","longitude":127.1308,"latitude":37.38314,"category":"cafe","imagePath":"/usr/mysql/nom.png","phone":"010-0100-0100","startTime":"00시 00분","endTime":"24시 00분","holiday":"월요일","explain":"버거킹","isCoupon":1,"isEvent":1,"isSale":1},
{"id":7,"userId":2,"name":"killme","address":"경기도 성남시 분당구 서현1동 92-1","longitude":127.1307,"latitude":37.38312,"category":"cafe","imagePath":"/usr/mysql/nom.png","phone":"010-0100-0100","startTime":"00시 00분","endTime":"24시 00분","holiday":"월요일","explain":"버거킹","isCoupon":1,"isEvent":1,"isSale":1},
{"id":8,"userId":2,"name":"killme2","address":"경기도 성남시 분당구 서현1동 92-1","longitude":127.1309,"latitude":37.38312,"category":"cafe","imagePath":"/usr/mysql/nom.png","phone":"010-0100-0100","startTime":"00시 00분","endTime":"24시 00분","holiday":"월요일","explain":"버거킹","isCoupon":1,"isEvent":1,"isSale":1}]}